{"total_count":291690,"results":[{"sport":["boules"],"meta_name_com":"Navarrenx","meta_code_com":"64416","meta_geo_point":{"lon":-0.757842859860261,"lat":43.3204917949625}},{"sport":["ultralight_aviation"],"meta_name_com":"Aramits","meta_code_com":"64029","meta_geo_point":{"lon":-0.742590059198335,"lat":43.1204299316271}},{"sport":["fitness"],"meta_name_com":"Saint-Priest","meta_code_com":"69290","meta_geo_point":{"lon":4.93382554202179,"lat":45.6935747965243}},{"sport":["skateboard"],"meta_name_com":"Carrières-sur-Seine","meta_code_com":"78124","meta_geo_point":{"lon":2.19547755652616,"lat":48.9126240908307}},{"sport":["swimming"],"meta_name_com":"Levroux","meta_code_com":"36093","meta_geo_point":{"lon":1.60660552414737,"lat":46.983461936402}},{"sport":["swimming"],"meta_name_com":"La Salle-les-Alpes","meta_code_com":"05161","meta_geo_point":{"lon":6.55642511993531,"lat":44.9471041252013}},{"sport":["table_tennis"],"meta_name_com":"Le François","meta_code_com":"97210","meta_geo_point":{"lon":-60.9099332055731,"lat":14.6196233567211}},{"sport":["fitness"],"meta_name_com":"Saint-Priest","meta_code_com":"69290","meta_geo_point":{"lon":4.9410849407223,"lat":45.6869664202433}},{"sport":["equestrian"],"meta_name_com":"Gelos","meta_code_com":"64237","meta_geo_point":{"lon":-0.365779003643013,"lat":43.2840449330312}},{"sport":["badminton","basketball","ping_pong","tennis"],"meta_name_com":"L'Herbergement","meta_code_com":"85108","meta_geo_point":{"lon":-1.37866025307105,"lat":46.9083601677863}},{"sport":null,"meta_name_com":"La Tour-du-Crieu","meta_code_com":"09312","meta_geo_point":{"lon":1.6573650724807,"lat":43.1022798423142}},{"sport":["table_tennis"],"meta_name_com":"Grigny","meta_code_com":"69096","meta_geo_point":{"lon":4.79921318288353,"lat":45.6116232528162}},{"sport":["fitness"],"meta_name_com":"Grigny","meta_code_com":"69096","meta_geo_point":{"lon":4.79742582585081,"lat":45.6069768286111}},{"sport":["boules"],"meta_name_com":"Morbecque","meta_code_com":"59416","meta_geo_point":{"lon":2.57222532871251,"lat":50.6823521371583}},{"sport":["fitness"],"meta_name_com":"Domart-en-Ponthieu","meta_code_com":"80241","meta_geo_point":{"lon":2.12290452427891,"lat":50.0757927803408}},{"sport":["exercise"],"meta_name_com":"L'Isle-d'Abeau","meta_code_com":"38193","meta_geo_point":{"lon":5.22972549950995,"lat":45.6142850938071}},{"sport":["fitness"],"meta_name_com":"Bout-du-Pont-de-Larn","meta_code_com":"81036","meta_geo_point":{"lon":2.39962869896283,"lat":43.5020212703813}},{"sport":["table_tennis"],"meta_name_com":"Paris 18e Arrondissement","meta_code_com":"75118","meta_geo_point":{"lon":2.33091779624087,"lat":48.8998586199355}},{"sport":null,"meta_name_com":"Mèze","meta_code_com":"34157","meta_geo_point":{"lon":3.593667937861,"lat":43.4380438798385}},{"sport":["table_tennis"],"meta_name_com":"Paris 19e Arrondissement","meta_code_com":"75119","meta_geo_point":{"lon":2.37586449472334,"lat":48.8995996191274}},{"sport":["climbing"],"meta_name_com":"Gières","meta_code_com":"38179","meta_geo_point":{"lon":5.77787304949183,"lat":45.1981885609917}},{"sport":["dance"],"meta_name_com":"Besançon","meta_code_com":"25056","meta_geo_point":{"lon":6.01807878079131,"lat":47.2456256556261}},{"sport":["table_tennis"],"meta_name_com":"Crapeaumesnil","meta_code_com":"60174","meta_geo_point":{"lon":2.79898422420783,"lat":49.6353495848344}},{"sport":["soccer","baseball"],"meta_name_com":"Tourcoing","meta_code_com":"59599","meta_geo_point":{"lon":3.18690918045704,"lat":50.7401419229594}},{"sport":["swimming"],"meta_name_com":"Dévoluy","meta_code_com":"05139","meta_geo_point":{"lon":5.89258878215293,"lat":44.6898527879701}},{"sport":["boules"],"meta_name_com":"Clermont-Ferrand","meta_code_com":"63113","meta_geo_point":{"lon":3.08709907002844,"lat":45.7687495715166}},{"sport":null,"meta_name_com":"Bohas-Meyriat-Rignat","meta_code_com":"01245","meta_geo_point":{"lon":5.39423367651622,"lat":46.15875349121}},{"sport":["table_tennis"],"meta_name_com":"Dijon","meta_code_com":"21231","meta_geo_point":{"lon":5.01483026594738,"lat":47.3032943229263}},{"sport":null,"meta_name_com":"Saint-Louis","meta_code_com":"68297","meta_geo_point":{"lon":7.57016626880994,"lat":47.5832009386071}},{"sport":["table_tennis"],"meta_name_com":"Bordeaux","meta_code_com":"33063","meta_geo_point":{"lon":-0.562558513695677,"lat":44.8297979653644}},{"sport":["table_tennis"],"meta_name_com":"Auxerre","meta_code_com":"89024","meta_geo_point":{"lon":3.55786958377823,"lat":47.8022879619468}},{"sport":["basketball"],"meta_name_com":"Ychoux","meta_code_com":"40332","meta_geo_point":{"lon":-0.951709742379165,"lat":44.3269450466658}},{"sport":["table_tennis"],"meta_name_com":"Bagneux","meta_code_com":"92007","meta_geo_point":{"lon":2.31736953940828,"lat":48.7888064495135}},{"sport":["swimming"],"meta_name_com":"Montréal","meta_code_com":"11254","meta_geo_point":{"lon":2.14457484528663,"lat":43.1958066266668}},{"sport":["boules"],"meta_name_com":"Pont-Melvez","meta_code_com":"22249","meta_geo_point":{"lon":-3.30887333051967,"lat":48.4648066645503}},{"sport":["fitness"],"meta_name_com":"Orange","meta_code_com":"84087","meta_geo_point":{"lon":4.80725654098785,"lat":44.1482772368095}},{"sport":null,"meta_name_com":"Lecelles","meta_code_com":"59335","meta_geo_point":{"lon":3.39668231680929,"lat":50.4705045635896}},{"sport":null,"meta_name_com":"Franconville","meta_code_com":"95252","meta_geo_point":{"lon":2.22528427476343,"lat":48.9847727473202}},{"sport":["fitness"],"meta_name_com":"Saint-Cyprien","meta_code_com":"66171","meta_geo_point":{"lon":3.02069536997399,"lat":42.6246815978773}},{"sport":["multi"],"meta_name_com":"Coquelles","meta_code_com":"62239","meta_geo_point":{"lon":1.80209497548262,"lat":50.9334431946521}},{"sport":["table_tennis"],"meta_name_com":"Roche","meta_code_com":"38339","meta_geo_point":{"lon":5.14166614677836,"lat":45.5946465461286}},{"sport":["fitness"],"meta_name_com":"Chenôve","meta_code_com":"21166","meta_geo_point":{"lon":4.99145816713835,"lat":47.2940754867209}},{"sport":["table_tennis"],"meta_name_com":"Paris 7e Arrondissement","meta_code_com":"75107","meta_geo_point":{"lon":2.29999209392992,"lat":48.8534457589499}},{"sport":["equestrian"],"meta_name_com":"Malafretaz","meta_code_com":"01229","meta_geo_point":{"lon":5.15353475403398,"lat":46.3313790385256}},{"sport":["running"],"meta_name_com":"Saint-Aubin-lès-Elbeuf","meta_code_com":"76561","meta_geo_point":{"lon":1.03234658558031,"lat":49.3038546182344}},{"sport":["boules"],"meta_name_com":"Villers-Cotterêts","meta_code_com":"02810","meta_geo_point":{"lon":3.09715525836086,"lat":49.2563861403631}},{"sport":["table_tennis"],"meta_name_com":"Lyon 7e Arrondissement","meta_code_com":"69387","meta_geo_point":{"lon":4.82537243213579,"lat":45.7208932629855}},{"sport":["archery"],"meta_name_com":"L'Île-Saint-Denis","meta_code_com":"93039","meta_geo_point":{"lon":2.3324999642839,"lat":48.9440799485173}},{"sport":["table_tennis"],"meta_name_com":"Breteuil","meta_code_com":"27112","meta_geo_point":{"lon":0.91004749366104,"lat":48.8362308385741}},{"sport":["table_tennis"],"meta_name_com":"Paris 4e Arrondissement","meta_code_com":"75104","meta_geo_point":{"lon":2.35781205458244,"lat":48.8538201785647}},{"sport":["multi"],"meta_name_com":"Voinsles","meta_code_com":"77527","meta_geo_point":{"lon":3.00476824520175,"lat":48.6902332565362}},{"sport":["table_tennis"],"meta_name_com":"Vauvert","meta_code_com":"30341","meta_geo_point":{"lon":4.27281164249501,"lat":43.6984939189588}},{"sport":["equestrian"],"meta_name_com":"Bourges","meta_code_com":"18033","meta_geo_point":{"lon":2.4198023473399,"lat":47.1241491636843}},{"sport":null,"meta_name_com":"Rognac","meta_code_com":"13081","meta_geo_point":{"lon":5.22078502630896,"lat":43.4923267611708}},{"sport":["skateboard"],"meta_name_com":"Orsay","meta_code_com":"91471","meta_geo_point":{"lon":2.19562474274588,"lat":48.700538722669}},{"sport":["athletics"],"meta_name_com":"Caen","meta_code_com":"14118","meta_geo_point":{"lon":-0.383527013060672,"lat":49.1848599240033}},{"sport":null,"meta_name_com":"Bergesserin","meta_code_com":"71030","meta_geo_point":{"lon":4.55771253136277,"lat":46.39467933893}},{"sport":["boules"],"meta_name_com":"Villefranche-sur-Mer","meta_code_com":"06159","meta_geo_point":{"lon":7.30873051787643,"lat":43.7007168834994}},{"sport":["table_tennis"],"meta_name_com":"Naintré","meta_code_com":"86174","meta_geo_point":{"lon":0.475391583200803,"lat":46.7579672833623}},{"sport":["fitness"],"meta_name_com":"Grignon","meta_code_com":"73130","meta_geo_point":{"lon":6.37203515242052,"lat":45.6546454663301}},{"sport":["multi"],"meta_name_com":"Grainville-sur-Ry","meta_code_com":"76316","meta_geo_point":{"lon":1.30089496808978,"lat":49.4766161200195}},{"sport":["climbing"],"meta_name_com":"Saint-Molf","meta_code_com":"44183","meta_geo_point":{"lon":-2.42574218201796,"lat":47.3945636931162}},{"sport":["table_tennis"],"meta_name_com":"Toulouse","meta_code_com":"31555","meta_geo_point":{"lon":1.40706937377899,"lat":43.614649490057}},{"sport":["table_tennis"],"meta_name_com":"Palaiseau","meta_code_com":"91477","meta_geo_point":{"lon":2.23264794433942,"lat":48.718144994104}},{"sport":["boules"],"meta_name_com":"Coupvray","meta_code_com":"77132","meta_geo_point":{"lon":2.79245044686505,"lat":48.8902937787671}},{"sport":["equestrian"],"meta_name_com":"Liouc","meta_code_com":"30148","meta_geo_point":{"lon":4.00083925253918,"lat":43.888825147081}},{"sport":["fitness"],"meta_name_com":"Olivet","meta_code_com":"45232","meta_geo_point":{"lon":1.90741736071425,"lat":47.8569913633613}},{"sport":["multi"],"meta_name_com":"Terres-de-Caux","meta_code_com":"76258","meta_geo_point":{"lon":0.599619937773525,"lat":49.6512849238717}},{"sport":["multi"],"meta_name_com":"Varengeville-sur-Mer","meta_code_com":"76720","meta_geo_point":{"lon":0.99308055433562,"lat":49.9075866752925}},{"sport":["table_tennis"],"meta_name_com":"Dijon","meta_code_com":"21231","meta_geo_point":{"lon":5.02976614685033,"lat":47.3145083873631}},{"sport":["fitness"],"meta_name_com":"Gétigné","meta_code_com":"44063","meta_geo_point":{"lon":-1.25214531531259,"lat":47.0754827442114}},{"sport":["boxe"],"meta_name_com":"Reims","meta_code_com":"51454","meta_geo_point":{"lon":4.00534226238108,"lat":49.2326009813658}},{"sport":["climbing"],"meta_name_com":"Biran","meta_code_com":"32054","meta_geo_point":{"lon":0.41547556002169,"lat":43.6964808372736}},{"sport":["fitness"],"meta_name_com":"Paris 11e Arrondissement","meta_code_com":"75111","meta_geo_point":{"lon":2.37871224632656,"lat":48.8696998617649}},{"sport":null,"meta_name_com":"Apt","meta_code_com":"84003","meta_geo_point":{"lon":5.37065395796557,"lat":43.8875424644384}},{"sport":["equestrian"],"meta_name_com":"Gluiras","meta_code_com":"07096","meta_geo_point":{"lon":4.54750764806803,"lat":44.8595910210996}},{"sport":["equestrian"],"meta_name_com":"Saint-Sernin","meta_code_com":"07296","meta_geo_point":{"lon":4.38065614239156,"lat":44.5857126701811}},{"sport":["table_tennis"],"meta_name_com":"Vic-la-Gardiole","meta_code_com":"34333","meta_geo_point":{"lon":3.77894747675961,"lat":43.4913934362524}},{"sport":["table_tennis"],"meta_name_com":"Vic-la-Gardiole","meta_code_com":"34333","meta_geo_point":{"lon":3.7788636577279,"lat":43.4913953640902}},{"sport":["fitness"],"meta_name_com":"Annezin","meta_code_com":"62035","meta_geo_point":{"lon":2.62206261623965,"lat":50.5336387346731}},{"sport":["climbing"],"meta_name_com":"Val-Cenis","meta_code_com":"73290","meta_geo_point":{"lon":6.88202894970882,"lat":45.2853837395061}},{"sport":["table_tennis"],"meta_name_com":"Dijon","meta_code_com":"21231","meta_geo_point":{"lon":5.00286157876786,"lat":47.3141907970519}},{"sport":null,"meta_name_com":"Landujan","meta_code_com":"35143","meta_geo_point":{"lon":-2.02547554389801,"lat":48.2348105942303}},{"sport":null,"meta_name_com":"Sars-et-Rosières","meta_code_com":"59554","meta_geo_point":{"lon":3.33024173638088,"lat":50.4438366166337}},{"sport":["fitness"],"meta_name_com":"La Motte-Servolex","meta_code_com":"73179","meta_geo_point":{"lon":5.87020775957512,"lat":45.5871527894154}},{"sport":["boules"],"meta_name_com":"Villerest","meta_code_com":"42332","meta_geo_point":{"lon":4.03488914161997,"lat":45.9844452768323}},{"sport":["basketball"],"meta_name_com":"Aizenay","meta_code_com":"85003","meta_geo_point":{"lon":-1.6135856368283,"lat":46.7487042745272}},{"sport":["basketball","handball","football","running"],"meta_name_com":"Saint-Valery-sur-Somme","meta_code_com":"80721","meta_geo_point":{"lon":1.64026096086482,"lat":50.1836314967242}},{"sport":["table_tennis"],"meta_name_com":"Brunoy","meta_code_com":"91114","meta_geo_point":{"lon":2.48970817417828,"lat":48.6953595446981}},{"sport":["table_tennis"],"meta_name_com":"Brunoy","meta_code_com":"91114","meta_geo_point":{"lon":2.48969543368545,"lat":48.6953702735342}},{"sport":["table_tennis"],"meta_name_com":"Néry","meta_code_com":"60447","meta_geo_point":{"lon":2.77920234598511,"lat":49.2816182673054}},{"sport":["basketball"],"meta_name_com":"Ancenis-Saint-Géréon","meta_code_com":"44003","meta_geo_point":{"lon":-1.19337811578245,"lat":47.3816884192895}},{"sport":["table_tennis"],"meta_name_com":"Bonny-sur-Loire","meta_code_com":"45040","meta_geo_point":{"lon":2.84075979726268,"lat":47.5577186956742}},{"sport":["fitness"],"meta_name_com":"Gourdon","meta_code_com":"46127","meta_geo_point":{"lon":1.38024342794827,"lat":44.75196839018}},{"sport":["fitness"],"meta_name_com":"Les Ulis","meta_code_com":"91692","meta_geo_point":{"lon":2.16914798700139,"lat":48.6789089700726}},{"sport":["fitness"],"meta_name_com":"Les Ulis","meta_code_com":"91692","meta_geo_point":{"lon":2.16959901721114,"lat":48.6789213752893}},{"sport":["boules"],"meta_name_com":"Monteils","meta_code_com":"12150","meta_geo_point":{"lon":1.99379589040245,"lat":44.2693097393402}},{"sport":["boules"],"meta_name_com":"Les Sables-d'Olonne","meta_code_com":"85194","meta_geo_point":{"lon":-1.78557726080692,"lat":46.5020091899717}},{"sport":["table_tennis"],"meta_name_com":"Hyères","meta_code_com":"83069","meta_geo_point":{"lon":6.15054093030849,"lat":43.0388215430349}},{"sport":["exercise"],"meta_name_com":"Beautor","meta_code_com":"02059","meta_geo_point":{"lon":3.34958708508634,"lat":49.6603459288404}}]}